[
  {
    "id": 1,
    "name": "나이키 강남플래그쉽스토어",
    "lat": 37.5023134298285,
    "lng": 127.025925464437,
    "address": "서울 강남구 강남대로 446",
    "phone": "02-532-4460",
    "category": "나이키 플래그십",
    "hours": "영업 중 • 영업 종료 시간: 오후 9:30"
  },
  {
    "id": 2,
    "name": "나이키 압구정점",
    "lat": 37.52633120508665,
    "lng": 127.03988714839129,
    "address": "서울 강남구 선릉로 831",
    "phone": "02-543-8310",
    "category": "리테일 스토어",
    "hours": "영업 중 • 영업 종료 시간: 오후 9:00"
  },
  {
    "id": 3,
    "name": "나이키 임플로이스토어점",
    "lat": 37.50002388012128,
    "lng": 127.0365087334559,
    "address": "서울 강남구 테헤란로 152",
    "phone": "02-555-1520",
    "category": "나이키 임플로이",
    "hours": "영업 중 • 영업 종료 시간: 오후 7:00"
  },
  {
    "id": 4,
    "name": "나이키 골프압구정점",
    "lat": 37.523718846828146,
    "lng": 127.03283883653621,
    "address": "서울 강남구 언주로 823",
    "phone": "02-512-8230",
    "category": "나이키 골프",
    "hours": "영업 중 • 영업 종료 시간: 오후 8:30"
  },
  {
    "id": 5,
    "name": "나이키 조던서울점",
    "lat": 37.52343014890781,
    "lng": 127.02205484555422,
    "address": "서울 강남구 논현로175길 88",
    "phone": "02-540-0880",
    "category": "나이키 조던",
    "hours": "영업 중 • 영업 종료 시간: 오후 9:00"
  },
  {
    "id": 6,
    "name": "나이키 스타필드코엑스점",
    "lat": 37.51150711671768,
    "lng": 127.06076106706614,
    "address": "서울 강남구 영동대로 513",
    "phone": "02-6002-0513",
    "category": "리테일 스토어",
    "hours": "영업 중 • 영업 종료 시간: 오후 10:00"
  },
  {
    "id": 7,
    "name": "나이키 롯데강남점",
    "lat": 37.49703322385523,
    "lng": 127.05361140463549,
    "address": "서울 강남구 도곡로 401",
    "phone": "02-531-0401",
    "category": "백화점 스토어",
    "hours": "영업 중 • 영업 종료 시간: 오후 8:00"
  },
  {
    "id": 8,
    "name": "나이키 현대압구정점",
    "lat": 37.527089777405585,
    "lng": 127.02750541918222,
    "address": "서울 강남구 압구정로 165",
    "phone": "02-545-0165",
    "category": "백화점 스토어",
    "hours": "영업 중 • 영업 종료 시간: 오후 8:00"
  },
  {
    "id": 9,
    "name": "나이키 현대무역점",
    "lat": 37.50882994437822,
    "lng": 127.05955774393486,
    "address": "서울 강남구 테헤란로 517",
    "phone": "02-3467-0517",
    "category": "백화점 스토어",
    "hours": "영업 중 • 영업 종료 시간: 오후 8:30"
  },
  {
    "id": 10,
    "name": "나이키 컴퍼니스토어",
    "lat": 37.5000202771389,
    "lng": 127.036505339012,
    "address": "서울 강남구 테헤란로 152",
    "phone": "02-555-1521",
    "category": "나이키 임플로이",
    "hours": "영업 중 • 영업 종료 시간: 오후 7:00"
  },
  {
    "id": 11,
    "name": "나이키 롯데잠실점",
    "lat": 37.51196500822451,
    "lng": 127.09910492902583,
    "address": "서울 송파구 올림픽로 240",
    "phone": "02-411-0240",
    "category": "백화점 스토어",
    "hours": "영업 중 • 영업 종료 시간: 오후 8:30"
  },
  {
    "id": 12,
    "name": "나이키 송파점",
    "lat": 37.5010861044237,
    "lng": 127.110472047975,
    "address": "서울 송파구 송파대로 375",
    "phone": "02-424-0375",
    "category": "리테일 스토어",
    "hours": "영업 중 • 영업 종료 시간: 오후 9:00"
  },
  {
    "id": 13,
    "name": "나이키키즈 롯데백화점 잠실점",
    "lat": 37.511832478186854,
    "lng": 127.0992031572545,
    "address": "서울 송파구 올림픽로 240",
    "phone": "02-411-0241",
    "category": "나이키 키즈",
    "hours": "영업 중 • 영업 종료 시간: 오후 8:00"
  },
  {
    "id": 14,
    "name": "나이키 롯데월드타워점",
    "lat": 37.5141276311679,
    "lng": 127.10409371662386,
    "address": "서울 송파구 올림픽로 300",
    "phone": "02-3213-0300",
    "category": "백화점 스토어",
    "hours": "영업 중 • 영업 종료 시간: 오후 9:00"
  },
  {
    "id": 15,
    "name": "나이키 롯데월드몰점",
    "lat": 37.513807503092345,
    "lng": 127.10337728315018,
    "address": "서울 송파구 올림픽로 300",
    "phone": "02-3213-0301",
    "category": "리테일 스토어",
    "hours": "영업 중 • 영업 종료 시간: 오후 10:00"
  },
  {
    "id": 16,
    "name": "나이키 건대점",
    "lat": 37.5409760726295,
    "lng": 127.06601257077828,
    "address": "서울 광진구 아차산로 200",
    "phone": "02-466-0200",
    "category": "리테일 스토어",
    "hours": "영업 중 • 영업 종료 시간: 오후 9:30"
  },
  {
    "id": 17,
    "name": "나이키 라이즈 롯데월드몰점",
    "lat": 37.5137835408685,
    "lng": 127.103988046084,
    "address": "서울 송파구 올림픽로 300",
    "phone": "02-3213-0302",
    "category": "나이키 라이즈",
    "hours": "영업 중 • 영업 종료 시간: 오후 10:00"
  },
  {
    "id": 18,
    "name": "나이키 롯데건대점",
    "lat": 37.5391604140629,
    "lng": 127.07092275590743,
    "address": "서울 광진구 능동로 92",
    "phone": "02-2218-0092",
    "category": "백화점 스토어",
    "hours": "영업 중 • 영업 종료 시간: 오후 8:00"
  },
  {
    "id": 19,
    "name": "나이키 신세계강남스포츠점",
    "lat": 37.5043308330452,
    "lng": 127.004616584989,
    "address": "서울 서초구 신반포로 176",
    "phone": "02-3479-0176",
    "category": "백화점 스토어",
    "hours": "영업 중 • 영업 종료 시간: 오후 8:00"
  },
  {
    "id": 20,
    "name": "나이키 문정점",
    "lat": 37.49112199870284,
    "lng": 127.12499580118914,
    "address": "서울 송파구 동남로 127",
    "phone": "02-400-0127",
    "category": "리테일 스토어",
    "hours": "영업 중 • 영업 종료 시간: 오후 9:00"
  },
  {
    "id": 21,
    "name": "나이키 엔터식스강변점",
    "lat": 37.536059762382806,
    "lng": 127.09585981663972,
    "address": "서울 광진구 광나루로56길 85",
    "phone": "02-510-0085",
    "category": "리테일 스토어",
    "hours": "영업 중 • 영업 종료 시간: 오후 9:30"
  },
  {
    "id": 22,
    "name": "나이키 현대가든파이브점",
    "lat": 37.478439831518756,
    "lng": 127.12442725218585,
    "address": "서울 송파구 충민로 66",
    "phone": "02-2623-0066",
    "category": "백화점 스토어",
    "hours": "영업 중 • 영업 종료 시간: 오후 9:00"
  },
  {
    "id": 23,
    "name": "나이키골프 도곡점",
    "lat": 37.491874612315534,
    "lng": 127.03828799660928,
    "address": "서울 강남구 도곡로 173",
    "phone": "02-570-0173",
    "category": "나이키 골프",
    "hours": "영업 중 • 영업 종료 시간: 오후 8:30"
  },
  {
    "id": 24,
    "name": "나이키코리아",
    "lat": 37.500029283011,
    "lng": 127.036518914156,
    "address": "서울 강남구 테헤란로 152",
    "phone": "02-555-1522",
    "category": "나이키 본사",
    "hours": "정보 없음"
  },
  {
    "id": 25,
    "name": "나이키스윔 현대백화점압구정본점",
    "lat": 37.5271789403933,
    "lng": 127.02766044089,
    "address": "서울 강남구 압구정로 165",
    "phone": "02-545-0166",
    "category": "나이키 스윔",
    "hours": "영업 중 • 영업 종료 시간: 오후 8:00"
  },
  {
    "id": 26,
    "name": "나이키스윔 롯데백화점강남점",
    "lat": 37.4969729910356,
    "lng": 127.053313947912,
    "address": "서울 강남구 도곡로 401",
    "phone": "02-531-0402",
    "category": "나이키 스윔",
    "hours": "영업 중 • 영업 종료 시간: 오후 8:00"
  },
  {
    "id": 27,
    "name": "나이키스윔 롯데잠실점",
    "lat": 37.5121126929512,
    "lng": 127.099200134892,
    "address": "서울 송파구 올림픽로 240",
    "phone": "02-411-0242",
    "category": "나이키 스윔",
    "hours": "영업 중 • 영업 종료 시간: 오후 8:30"
  },
  {
    "id": 28,
    "name": "나이키골프 롯데백화점잠실점",
    "lat": 37.51198109805728,
    "lng": 127.09925764562934,
    "address": "서울 송파구 올림픽로 240",
    "phone": "02-411-0243",
    "category": "나이키 골프",
    "hours": "영업 중 • 영업 종료 시간: 오후 8:30"
  },
  {
    "id": 29,
    "name": "나이키골프 문정점",
    "lat": 37.4905885818152,
    "lng": 127.123989446211,
    "address": "서울 송파구 동남로 117",
    "phone": "02-400-0117",
    "category": "나이키 골프",
    "hours": "영업 중 • 영업 종료 시간: 오후 9:00"
  },
  {
    "id": 30,
    "name": "나이키 스윔 신세계 강남점",
    "lat": 37.5045443812914,
    "lng": 127.004354214315,
    "address": "서울 서초구 신반포로 176",
    "phone": "02-3479-0177",
    "category": "나이키 스윔",
    "hours": "영업 중 • 영업 종료 시간: 오후 8:00"
  },
  {
    "id": 31,
    "name": "나이키골프 신세계백화점강남점",
    "lat": 37.5053688019563,
    "lng": 127.004333904606,
    "address": "서울 서초구 신반포로 176",
    "phone": "02-3479-0178",
    "category": "나이키 골프",
    "hours": "영업 중 • 영업 종료 시간: 오후 8:00"
  },
  {
    "id": 32,
    "name": "나이키골프 현대아울렛가든파이브점",
    "lat": 37.4778984570065,
    "lng": 127.124301992713,
    "address": "서울 송파구 충민로 66",
    "phone": "02-2623-0067",
    "category": "나이키 골프",
    "hours": "영업 중 • 영업 종료 시간: 오후 9:00"
  },
  {
    "id": 33,
    "name": "카시나 도산",
    "lat": 37.52701833176692,
    "lng": 127.03528650129336,
    "address": "서울 강남구 압구정로42길 27",
    "phone": "02-3444-0027",
    "category": "나이키 파트너",
    "hours": "영업 중 • 영업 종료 시간: 오후 9:00"
  },
  {
    "id": 34,
    "name": "슈마커 플러스 건대스타시티점",
    "lat": 37.53835706866116,
    "lng": 127.07330601287512,
    "address": "서울 광진구 아차산로 272",
    "phone": "02-458-0272",
    "category": "나이키 파트너",
    "hours": "영업 중 • 영업 종료 시간: 오후 9:30"
  },
  {
    "id": 35,
    "name": "카시나 성수점",
    "lat": 37.5426314275779,
    "lng": 127.0530703479,
    "address": "서울 성동구 성수이로7길 41",
    "phone": "02-468-0041",
    "category": "나이키 파트너",
    "hours": "영업 중 • 영업 종료 시간: 오후 9:00"
  },
  {
    "id": 36,
    "name": "나이키 수원망포점",
    "lat": 37.245464559263574,
    "lng": 127.06025152389759,
    "address": "경기 수원시 영통구 덕영대로1556번길 16",
    "phone": "031-205-0016",
    "category": "리테일 스토어",
    "hours": "영업 중 • 영업 종료 시간: 오후 9:00"
  },
  {
    "id": 37,
    "name": "나이키 클리어런스 스토어 이천점",
    "lat": 37.242969521233746,
    "lng": 127.39820646888825,
    "address": "경기 이천시 호법면 프리미엄아울렛로 177-119",
    "phone": "031-760-1771",
    "category": "나이키 아울렛",
    "hours": "영업 중 • 영업 종료 시간: 오후 8:30"
  },
  {
    "id": 38,
    "name": "나이키 NVS 양주점",
    "lat": 37.83144789541103,
    "lng": 127.05234530310965,
    "address": "경기 양주시 평화로 1593",
    "phone": "031-858-1593",
    "category": "나이키 아울렛",
    "hours": "영업 중 • 영업 종료 시간: 오후 9:00"
  },
  {
    "id": 39,
    "name": "나이키 NVS 여주점",
    "lat": 37.24067256137067,
    "lng": 127.61220120084134,
    "address": "경기 여주시 명품로 360",
    "phone": "031-881-0360",
    "category": "나이키 아울렛",
    "hours": "영업 중 • 영업 종료 시간: 오후 8:30"
  },
  {
    "id": 40,
    "name": "나이키 유나이트 용인점",
    "lat": 37.2251810943329,
    "lng": 127.121372173253,
    "address": "경기 용인시 기흥구 신고매로 124",
    "phone": "031-8016-0124",
    "category": "나이키 유나이트",
    "hours": "영업 중 • 영업 종료 시간: 오후 9:00"
  },
  {
    "id": 41,
    "name": "나이키 유나이트시흥점",
    "lat": 37.37895441553478,
    "lng": 126.73589240271164,
    "address": "경기 시흥시 서해안로 699",
    "phone": "031-434-0699",
    "category": "나이키 유나이트",
    "hours": "영업 중 • 영업 종료 시간: 오후 9:30"
  },
  {
    "id": 42,
    "name": "나이키 유나이트김포점",
    "lat": 37.5971786141538,
    "lng": 126.78605668233827,
    "address": "경기 김포시 고촌읍 아라육로152번길 100",
    "phone": "031-8041-0100",
    "category": "나이키 유나이트",
    "hours": "영업 중 • 영업 종료 시간: 오후 9:00"
  },
  {
    "id": 43,
    "name": "나이키 광주경기점",
    "lat": 37.4114917703471,
    "lng": 127.25893205252,
    "address": "경기 광주시 경안로 14-18",
    "phone": "031-765-0014",
    "category": "리테일 스토어",
    "hours": "영업 중 • 영업 종료 시간: 오후 9:00"
  },
  {
    "id": 44,
    "name": "나이키 NVS 파주점",
    "lat": 37.769632665976886,
    "lng": 126.69831661240914,
    "address": "경기 파주시 탄현면 필승로 200",
    "phone": "031-960-0200",
    "category": "나이키 아울렛",
    "hours": "영업 중 • 영업 종료 시간: 오후 9:00"
  },
  {
    "id": 45,
    "name": "나이키 유나이트남양주점",
    "lat": 37.61674612086148,
    "lng": 127.15253781290498,
    "address": "경기 남양주시 다산순환로 50",
    "phone": "031-8036-0050",
    "category": "나이키 유나이트",
    "hours": "영업 중 • 영업 종료 시간: 오후 9:30"
  },
  {
    "id": 46,
    "name": "나이키 의정부점",
    "lat": 37.73872255633255,
    "lng": 127.04834316717181,
    "address": "경기 의정부시 시민로 117",
    "phone": "031-840-0117",
    "category": "리테일 스토어",
    "hours": "영업 중 • 영업 종료 시간: 오후 9:00"
  },
  {
    "id": 47,
    "name": "나이키 포천점",
    "lat": 37.8094909287904,
    "lng": 127.132674364672,
    "address": "경기 포천시 소흘읍 윗용상길 6",
    "phone": "031-541-0006",
    "category": "리테일 스토어",
    "hours": "영업 중 • 영업 종료 시간: 오후 9:00"
  },
  {
    "id": 48,
    "name": "나이키 유나이트교하점",
    "lat": 37.71972286178703,
    "lng": 126.6944994400882,
    "address": "경기 파주시 회동길 430",
    "phone": "031-949-0430",
    "category": "나이키 유나이트",
    "hours": "영업 중 • 영업 종료 시간: 오후 9:00"
  },
  {
    "id": 49,
    "name": "나이키 이천점",
    "lat": 37.280182344918124,
    "lng": 127.44469420882189,
    "address": "경기 이천시 어재연로37번길 15",
    "phone": "031-638-0015",
    "category": "리테일 스토어",
    "hours": "영업 중 • 영업 종료 시간: 오후 9:00"
  },
  {
    "id": 50,
    "name": "나이키 김포장기점",
    "lat": 37.6553498617903,
    "lng": 126.668081155825,
    "address": "경기 김포시 김포대로 1473",
    "phone": "031-987-1473",
    "category": "리테일 스토어",
    "hours": "영업 중 • 영업 종료 시간: 오후 9:00"
  },
  {
    "id": 51,
    "name": "나이키 신흥점",
    "lat": 37.440713551176835,
    "lng": 127.14572971746439,
    "address": "경기 성남시 수정구 산성대로 259",
    "phone": "031-733-0259",
    "category": "리테일 스토어",
    "hours": "영업 중 • 영업 종료 시간: 오후 9:00"
  },
  {
    "id": 52,
    "name": "나이키 영통점",
    "lat": 37.26681435715254,
    "lng": 127.07657410838559,
    "address": "경기 용인시 기흥구 중부대로 64",
    "phone": "031-286-0064",
    "category": "리테일 스토어",
    "hours": "영업 중 • 영업 종료 시간: 오후 9:30"
  },
  {
    "id": 53,
    "name": "나이키 덕이점",
    "lat": 37.69240785595101,
    "lng": 126.75555454125056,
    "address": "경기 고양시 일산서구 탄중로 95",
    "phone": "031-913-0095",
    "category": "리테일 스토어",
    "hours": "영업 중 • 영업 종료 시간: 오후 9:00"
  },
  {
    "id": 54,
    "name": "나이키 수원천천점",
    "lat": 37.29536025335469,
    "lng": 126.98262923081474,
    "address": "경기 수원시 장안구 만석로5번길 6",
    "phone": "031-291-0006",
    "category": "리테일 스토어",
    "hours": "영업 중 • 영업 종료 시간: 오후 9:00"
  },
  {
    "id": 55,
    "name": "나이키키즈 현대프리미엄아울렛김포점",
    "lat": 37.5978945691577,
    "lng": 126.783404876929,
    "address": "경기 김포시 고촌읍 아라육로152번길 97",
    "phone": "031-8041-0097",
    "category": "나이키 키즈",
    "hours": "영업 중 • 영업 종료 시간: 오후 8:30"
  },
  {
    "id": 56,
    "name": "나이키골프 덕이동 로데오거리",
    "lat": 37.6924470978761,
    "lng": 126.756536631917,
    "address": "경기 고양시 일산서구 탄중로 111",
    "phone": "031-913-0111",
    "category": "나이키 골프",
    "hours": "영업 중 • 영업 종료 시간: 오후 9:00"
  },
  {
    "id": 57,
    "name": "나이키키즈 타임빌라스 수원점",
    "lat": 37.2645522672247,
    "lng": 126.998534424238,
    "address": "경기 수원시 권선구 세화로 134",
    "phone": "031-8067-0134",
    "category": "나이키 키즈",
    "hours": "영업 중 • 영업 종료 시간: 오후 9:00"
  },
  {
    "id": 58,
    "name": "나이키 시흥점",
    "lat": 37.442082654063725,
    "lng": 126.77857307417136,
    "address": "경기 시흥시 수인로 3423",
    "phone": "031-487-3423",
    "category": "리테일 스토어",
    "hours": "영업 중 • 영업 종료 시간: 오후 9:30"
  },
  {
    "id": 59,
    "name": "나이키 봉담점",
    "lat": 37.199718718783835,
    "lng": 126.94050912957978,
    "address": "경기 화성시 봉담읍 삼천병마로 1047-12",
    "phone": "031-294-1047",
    "category": "리테일 스토어",
    "hours": "영업 중 • 영업 종료 시간: 오후 9:00"
  },
  {
    "id": 60,
    "name": "나이키 AK수원점",
    "lat": 37.26640842259467,
    "lng": 126.99983089095385,
    "address": "경기 수원시 팔달구 덕영대로 924",
    "phone": "031-240-0924",
    "category": "백화점 스토어",
    "hours": "영업 중 • 영업 종료 시간: 오후 8:00"
  },
  {
    "id": 61,
    "name": "나이키 평택 중앙점",
    "lat": 36.99230971372486,
    "lng": 127.08645185650943,
    "address": "경기 평택시 평택로 56",
    "phone": "031-655-0056",
    "category": "리테일 스토어",
    "hours": "영업 중 • 영업 종료 시간: 오후 9:30"
  },
  {
    "id": 62,
    "name": "나이키 PPO평택점",
    "lat": 37.0341038934353,
    "lng": 127.069575893498,
    "address": "경기 평택시 경기대로 945",
    "phone": "031-654-0945",
    "category": "나이키 아울렛",
    "hours": "영업 중 • 영업 종료 시간: 오후 9:00"
  },
  {
    "id": 63,
    "name": "나이키 신세계경기점",
    "lat": 37.32514142005233,
    "lng": 127.10823914607553,
    "address": "경기 용인시 수지구 포은대로 536",
    "phone": "031-695-0536",
    "category": "백화점 스토어",
    "hours": "영업 중 • 영업 종료 시간: 오후 8:00"
  },
  {
    "id": 64,
    "name": "나이키 롯데의왕점",
    "lat": 37.37566744588095,
    "lng": 127.00835366980435,
    "address": "경기 의왕시 바라산로 1",
    "phone": "031-8033-0001",
    "category": "리테일 스토어",
    "hours": "영업 중 • 영업 종료 시간: 오후 9:00"
  },
  {
    "id": 65,
    "name": "나이키 롯데부천점",
    "lat": 37.50243692620547,
    "lng": 126.77581869998052,
    "address": "경기 부천시 원미구 길주로 300",
    "phone": "032-320-0300",
    "category": "백화점 스토어",
    "hours": "영업 중 • 영업 종료 시간: 오후 8:00"
  },
  {
    "id": 66,
    "name": "나이키 롯데동탄점",
    "lat": 37.20080971988558,
    "lng": 127.09666574068541,
    "address": "경기 화성시 동탄역로 156",
    "phone": "031-8036-0156",
    "category": "백화점 스토어",
    "hours": "영업 중 • 영업 종료 시간: 오후 8:30"
  },
  {
    "id": 67,
    "name": "나이키 롯데안산점",
    "lat": 37.318048169360885,
    "lng": 126.83440356934975,
    "address": "경기 안산시 단원구 고잔1길 12",
    "phone": "031-412-0012",
    "category": "백화점 스토어",
    "hours": "영업 중 • 영업 종료 시간: 오후 8:00"
  },
  {
    "id": 68,
    "name": "나이키 스타필드수원점",
    "lat": 37.2871905657891,
    "lng": 126.990902814935,
    "address": "경기 수원시 장안구 수성로 175",
    "phone": "031-8067-0175",
    "category": "리테일 스토어",
    "hours": "영업 중 • 영업 종료 시간: 오후 10:00"
  },
  {
    "id": 69,
    "name": "나이키 송탄점",
    "lat": 37.08114888434843,
    "lng": 127.05211602257734,
    "address": "경기 평택시 쇼핑로 23-2",
    "phone": "031-663-0023",
    "category": "리테일 스토어",
    "hours": "영업 중 • 영업 종료 시간: 오후 9:00"
  },
  {
    "id": 70,
    "name": "나이키 안산고잔점",
    "lat": 37.304478643236834,
    "lng": 126.84646641180434,
    "address": "경기 안산시 상록구 삼리로 58",
    "phone": "031-415-0058",
    "category": "리테일 스토어",
    "hours": "영업 중 • 영업 종료 시간: 오후 9:00"
  },
  {
    "id": 71,
    "name": "나이키 안성점",
    "lat": 37.00690302237556,
    "lng": 127.27189987925732,
    "address": "경기 안성시 중앙로 406-1",
    "phone": "031-676-0406",
    "category": "리테일 스토어",
    "hours": "영업 중 • 영업 종료 시간: 오후 9:00"
  },
  {
    "id": 72,
    "name": "나이키 세이브존부천상동점",
    "lat": 37.50642755406545,
    "lng": 126.75425370396309,
    "address": "경기 부천시 원미구 길주로 105",
    "phone": "032-320-0105",
    "category": "백화점 스토어",
    "hours": "영업 중 • 영업 종료 시간: 오후 8:30"
  },
  {
    "id": 73,
    "name": "나이키 스타필드고양점",
    "lat": 37.6469898420845,
    "lng": 126.89479991638878,
    "address": "경기 고양시 덕양구 고양대로 1955",
    "phone": "031-5177-1955",
    "category": "리테일 스토어",
    "hours": "영업 중 • 영업 종료 시간: 오후 10:00"
  },
  {
    "id": 74,
    "name": "나이키 롯데원흥점",
    "lat": 37.62942359877587,
    "lng": 126.86261651707912,
    "address": "경기 고양시 덕양구 권율대로 420",
    "phone": "031-8073-0420",
    "category": "백화점 스토어",
    "hours": "영업 중 • 영업 종료 시간: 오후 9:00"
  },
  {
    "id": 75,
    "name": "나이키 타임빌라스 수원점",
    "lat": 37.26498836761494,
    "lng": 126.99824242631642,
    "address": "경기 수원시 권선구 세화로 134",
    "phone": "031-8067-0135",
    "category": "리테일 스토어",
    "hours": "영업 중 • 영업 종료 시간: 오후 10:00"
  },
  {
    "id": 76,
    "name": "나이키키즈 롯데프리미엄아울렛이천점",
    "lat": 37.2435190601377,
    "lng": 127.3990377384,
    "address": "경기 이천시 호법면 단천리 863",
    "phone": "031-760-0863",
    "category": "나이키 키즈",
    "hours": "영업 중 • 영업 종료 시간: 오후 8:30"
  },
  {
    "id": 77,
    "name": "나이키 현대 판교점",
    "lat": 37.39313536212589,
    "lng": 127.11173181565484,
    "address": "경기 성남시 분당구 판교역로146번길 20",
    "phone": "031-5170-0020",
    "category": "백화점 스토어",
    "hours": "영업 중 • 영업 종료 시간: 오후 8:00"
  },
  {
    "id": 78,
    "name": "나이키 현대 일산점",
    "lat": 37.66854753786092,
    "lng": 126.75123085637931,
    "address": "경기 고양시 일산서구 호수로 817",
    "phone": "031-810-0817",
    "category": "백화점 스토어",
    "hours": "영업 중 • 영업 종료 시간: 오후 8:30"
  },
  {
    "id": 79,
    "name": "나이키 롯데평촌점",
    "lat": 37.39040908344987,
    "lng": 126.95083028912501,
    "address": "경기 안양시 동안구 시민대로 180",
    "phone": "031-8086-0180",
    "category": "백화점 스토어",
    "hours": "영업 중 • 영업 종료 시간: 오후 8:00"
  },
  {
    "id": 80,
    "name": "나이키 화성북양점",
    "lat": 37.2221629857316,
    "lng": 126.84091412091,
    "address": "경기 화성시 남양읍 화성로 1456",
    "phone": "031-356-1456",
    "category": "리테일 스토어",
    "hours": "영업 중 • 영업 종료 시간: 오후 9:00"
  },
  {
    "id": 81,
    "name": "나이키 부평점",
    "lat": 37.493892587624735,
    "lng": 126.72347004916271,
    "address": "인천 부평구 부평문화로 64",
    "phone": "032-526-0064",
    "category": "리테일 스토어",
    "hours": "영업 중 • 영업 종료 시간: 오후 9:30"
  },
  {
    "id": 82,
    "name": "나이키 신포점",
    "lat": 37.47200810150548,
    "lng": 126.62589700395218,
    "address": "인천 중구 개항로 27",
    "phone": "032-762-0027",
    "category": "리테일 스토어",
    "hours": "영업 중 • 영업 종료 시간: 오후 9:00"
  },
  {
    "id": 83,
    "name": "나이키 계산점",
    "lat": 37.5431871972844,
    "lng": 126.722304766958,
    "address": "인천 계양구 계양대로 215",
    "phone": "032-545-0215",
    "category": "리테일 스토어",
    "hours": "영업 중 • 영업 종료 시간: 오후 9:00"
  },
  {
    "id": 84,
    "name": "나이키 만수점",
    "lat": 37.461296728579,
    "lng": 126.7348107168,
    "address": "인천 남동구 만수로 63",
    "phone": "032-468-0063",
    "category": "리테일 스토어",
    "hours": "영업 중 • 영업 종료 시간: 오후 9:00"
  },
  {
    "id": 85,
    "name": "나이키 유나이트 송도점",
    "lat": 37.380851993513,
    "lng": 126.65755102294894,
    "address": "인천 연수구 송도국제대로 123",
    "phone": "032-727-0123",
    "category": "나이키 유나이트",
    "hours": "영업 중 • 영업 종료 시간: 오후 10:00"
  },
  {
    "id": 86,
    "name": "나이키 롯데인천점",
    "lat": 37.442483399396096,
    "lng": 126.7018261139763,
    "address": "인천 미추홀구 연남로 35",
    "phone": "032-242-0035",
    "category": "백화점 스토어",
    "hours": "영업 중 • 영업 종료 시간: 오후 8:00"
  },
  {
    "id": 87,
    "name": "나이키 아이즈빌인천점",
    "lat": 37.52127582157816,
    "lng": 126.70412481432808,
    "address": "인천 부평구 마장로 489",
    "phone": "032-517-0489",
    "category": "리테일 스토어",
    "hours": "영업 중 • 영업 종료 시간: 오후 9:00"
  },
  {
    "id": 88,
    "name": "나이키 인천간석점",
    "lat": 37.46103802063532,
    "lng": 126.7081162972731,
    "address": "인천 남동구 남동대로 879",
    "phone": "032-421-0879",
    "category": "리테일 스토어",
    "hours": "영업 중 • 영업 종료 시간: 오후 9:00"
  },
  {
    "id": 89,
    "name": "나이키 LF스퀘어인천점",
    "lat": 37.41855660463903,
    "lng": 126.66926541125447,
    "address": "인천 연수구 청능대로23번길 11",
    "phone": "032-832-0011",
    "category": "나이키 아울렛",
    "hours": "영업 중 • 영업 종료 시간: 오후 9:30"
  },
  {
    "id": 90,
    "name": "나이키 모다인천점",
    "lat": 37.51000750000857,
    "lng": 126.64775143100518,
    "address": "인천 서구 북항로32번안길 50",
    "phone": "032-572-0050",
    "category": "나이키 아울렛",
    "hours": "영업 중 • 영업 종료 시간: 오후 9:00"
  },
  {
    "id": 91,
    "name": "나이키 스퀘어원인천점",
    "lat": 37.4059785503114,
    "lng": 126.683700415594,
    "address": "인천 연수구 청능대로 210",
    "phone": "032-456-0210",
    "category": "리테일 스토어",
    "hours": "영업 중 • 영업 종료 시간: 오후 10:00"
  },
  {
    "id": 92,
    "name": "나이키 뉴코아아울렛인천키즈점",
    "lat": 37.444171805022684,
    "lng": 126.70072100393315,
    "address": "인천 남동구 인하로 485",
    "phone": "032-440-0485",
    "category": "나이키 키즈",
    "hours": "영업 중 • 영업 종료 시간: 오후 9:00"
  },
  {
    "id": 93,
    "name": "나이키팩토리스토어 일신점",
    "lat": 37.485745734259645,
    "lng": 126.74428533611581,
    "address": "인천 부평구 경인로 1119",
    "phone": "032-520-1119",
    "category": "나이키 팩토리",
    "hours": "영업 중 • 영업 종료 시간: 오후 9:30"
  },
  {
    "id": 94,
    "name": "나이키스윔 현대프리미엄아울렛송도점",
    "lat": 37.3816721926678,
    "lng": 126.658267666434,
    "address": "인천 연수구 송도국제대로 123",
    "phone": "032-727-0124",
    "category": "나이키 스윔",
    "hours": "영업 중 • 영업 종료 시간: 오후 8:30"
  },
  {
    "id": 95,
    "name": "나이키키즈 현대프리미엄아울렛송도점",
    "lat": 37.3812678548964,
    "lng": 126.657098618848,
    "address": "인천 연수구 송도국제대로 123",
    "phone": "032-727-0125",
    "category": "나이키 키즈",
    "hours": "영업 중 • 영업 종료 시간: 오후 8:30"
  },
  {
    "id": 96,
    "name": "나이키키즈 롯데백화점인천점",
    "lat": 37.442055329027,
    "lng": 126.701790521958,
    "address": "인천 미추홀구 연남로 35",
    "phone": "032-242-0036",
    "category": "나이키 키즈",
    "hours": "영업 중 • 영업 종료 시간: 오후 8:00"
  },
  {
    "id": 97,
    "name": "나이키골프 롯데백화점인천점",
    "lat": 37.4422750516298,
    "lng": 126.70102801457608,
    "address": "인천 미추홀구 연남로 35",
    "phone": "032-242-0037",
    "category": "나이키 골프",
    "hours": "영업 중 • 영업 종료 시간: 오후 8:00"
  }
]
